,City,Lat,Lng,Max Temp,Humidity,Cloudiness,Wind Speed,Country,Date
0,Bluff,-46.6,168.33,39.0,83,3,3.0,NZ,1592485233
1,Belaya Kholunitsa,58.84,50.85,65.62,38,0,6.64,RU,1592485255
2,Kapaa,22.08,-159.32,77.0,83,20,17.22,US,1592485202
3,Vestmannaeyjar,63.44,-20.27,51.8,71,40,23.04,IS,1592485259
4,Vaini,-21.2,-175.2,68.0,94,75,8.05,TO,1592485156
5,Kaitangata,-46.28,169.85,39.18,80,9,5.32,NZ,1592485264
6,Haines Junction,60.75,-137.51,48.4,76,100,1.63,CA,1592485217
7,Poum,-20.23,164.02,74.5,79,100,16.98,NC,1592485268
8,Severo-Kuril'sk,50.68,156.12,41.58,88,48,5.28,RU,1592485270
9,Castro,-24.79,-50.01,64.44,72,88,11.92,BR,1592485213
10,Hilo,19.73,-155.09,73.4,88,90,4.7,US,1592485195
11,Dikson,73.51,80.55,32.5,95,0,12.24,RU,1592485225
12,Weyburn,49.67,-103.85,48.0,88,100,15.01,CA,1592485278
13,Puerto Ayora,-0.74,-90.35,71.01,91,85,5.99,EC,1592485280
14,Alamosa,37.47,-105.87,39.2,51,1,4.7,US,1592485282
15,Zinder,13.81,8.99,96.8,30,0,9.17,NE,1592485284
16,Mataura,-46.19,168.86,39.0,83,0,3.0,NZ,1592485286
17,Lappeenranta,61.06,28.19,73.0,83,63,3.36,FI,1592485213
18,Hermanus,-34.42,19.23,75.0,37,0,1.01,ZA,1592485291
19,Vila do Maio,15.13,-23.22,87.8,48,0,23.04,CV,1592485293
20,Bredasdorp,-34.53,20.04,77.0,27,0,6.29,ZA,1592485295
21,Cape Town,-33.93,18.42,78.01,29,0,10.29,ZA,1592485023
22,Khatanga,71.97,102.5,57.99,45,100,6.11,RU,1592485299
23,Labuhan,-6.88,112.21,81.34,80,0,8.3,ID,1592485301
24,Ushuaia,-54.8,-68.3,30.2,86,1,5.32,AR,1592484952
25,Usinsk,65.99,57.53,46.78,55,83,12.82,RU,1592485305
26,Thompson,55.74,-97.86,37.4,93,90,16.11,CA,1592485168
27,Saint Paul Harbor,57.79,-152.41,48.2,87,90,12.75,US,1592485212
28,Rikitea,-23.12,-134.97,76.06,83,100,21.97,PF,1592485172
29,Timrat,32.7,35.23,80.6,61,40,10.29,IL,1592485314
30,Caserta,41.08,14.33,80.01,50,20,11.41,IT,1592485316
31,Laas,46.62,10.7,62.6,42,40,10.29,IT,1592485318
32,Raudeberg,61.99,5.14,71.6,87,40,9.17,NO,1592485320
33,Atuona,-9.8,-139.03,79.61,76,50,10.74,PF,1592485189
34,Palmer,42.16,-72.33,70.0,88,90,4.7,US,1592485324
35,Smithers,54.78,-127.17,51.8,87,90,2.24,CA,1592485148
36,Sitka,57.05,-135.33,51.8,87,90,3.36,US,1592485328
37,Qasigiannguit,68.82,-51.19,37.4,74,75,6.93,GL,1592485330
38,Ponta do Sol,32.67,-17.1,73.4,69,20,18.34,PT,1592485332
39,Norman Wells,65.28,-126.83,66.2,59,75,12.75,CA,1592485334
40,Albany,42.6,-73.97,66.0,74,4,1.74,US,1592485149
41,Ostrovnoy,68.05,39.51,68.36,44,82,13.35,RU,1592485339
42,Busselton,-33.65,115.33,48.0,98,4,7.81,AU,1592485282
43,Domoni,-12.26,44.53,76.35,72,100,13.89,KM,1592485343
44,Mubi,10.27,13.26,89.46,44,78,6.24,NG,1592485345
45,Boguchany,58.38,97.45,67.44,49,52,7.07,RU,1592485347
46,Hong Kong,22.29,114.16,86.0,70,6,5.01,HK,1592485349
47,Mossamedes,-15.2,12.15,80.6,57,0,9.17,AO,1592485351
48,Moberly,39.42,-92.44,69.01,80,1,4.0,US,1592485283
49,Zyryanka,65.75,150.85,72.27,38,27,13.18,RU,1592485355
50,George Town,5.41,100.34,84.2,83,20,4.7,MY,1592485357
51,Tabou,4.42,-7.35,81.28,75,100,11.25,CI,1592485359
52,Beringovskiy,63.05,179.32,45.66,64,22,2.06,RU,1592485362
53,Petropavlovsk-Kamchatskiy,53.05,158.65,42.8,100,90,4.47,RU,1592485364
54,East London,-33.02,27.91,69.8,52,0,10.29,ZA,1592484974
55,Ahipara,-35.17,173.17,51.93,84,7,5.5,NZ,1592485368
56,Tezu,27.92,96.17,77.5,88,100,1.61,IN,1592485370
57,Hervey Bay,-25.3,152.85,66.0,85,18,5.99,AU,1592485372
58,Taicheng,38.73,113.23,60.89,78,0,5.32,CN,1592485374
59,Yellowknife,62.46,-114.35,55.0,76,20,12.75,CA,1592485376
60,Chokurdakh,70.63,147.92,76.78,37,4,6.78,RU,1592485378
61,Wollongong,-34.43,150.88,50.0,81,12,1.01,AU,1592485237
62,Punta Arenas,-53.15,-70.92,33.8,88,90,12.75,CL,1592485200
63,Yulara,-25.24,130.99,53.6,34,0,8.05,AU,1592485385
64,Tiksi,71.69,128.87,55.89,60,97,5.53,RU,1592485387
65,The Valley,18.22,-63.06,84.99,74,75,16.11,AI,1592485191
66,Pandan,14.05,124.17,82.29,82,65,10.47,PH,1592485391
67,Port Alfred,-33.59,26.89,64.99,72,0,3.0,ZA,1592485367
68,Neryungri,56.67,124.65,55.54,74,96,4.05,RU,1592485395
69,Port Blair,11.67,92.75,83.86,81,96,12.3,IN,1592485397
70,Vyartsilya,62.18,30.69,70.14,72,100,8.32,RU,1592485399
71,Sekoma,-24.4,23.88,67.66,26,0,7.65,BW,1592485401
72,Avarua,-21.21,-159.78,69.8,83,7,8.05,CK,1592485328
73,Qaanaaq,77.48,-69.36,33.85,89,0,1.77,GL,1592485406
74,Pevek,69.7,170.31,37.99,78,0,11.9,RU,1592485408
75,São Félix do Xingu,-6.64,-51.99,81.05,61,99,5.77,BR,1592485410
76,Sémbé,1.65,14.58,85.08,62,47,2.21,CG,1592485412
77,Esperance,-33.87,121.9,50.0,87,75,20.8,AU,1592485242
78,Ust-Kuyga,70.02,135.6,68.05,55,77,6.29,RU,1592485416
79,Urubamba,-13.3,-72.12,53.65,63,53,3.2,PE,1592485253
80,Tsabong,-26.02,22.4,68.79,27,0,8.55,BW,1592485420
81,Oyón,-10.67,-76.77,50.4,49,0,2.84,PE,1592485422
82,Hasaki,35.73,140.83,69.8,100,90,1.12,JP,1592485309
83,Moussoro,13.64,16.49,101.08,22,0,2.44,TD,1592485427
84,Jamestown,42.1,-79.24,69.01,72,1,3.36,US,1592485429
85,Tuktoyaktuk,69.45,-133.04,37.4,93,100,9.66,CA,1592485431
86,Kumul,42.8,93.45,93.45,12,0,14.05,CN,1592485433
87,Polson,47.69,-114.16,52.0,65,100,2.84,US,1592485435
88,Krasne,49.91,24.61,77.0,57,40,13.42,UA,1592485437
89,Šibenik,43.73,15.91,77.0,47,20,14.99,HR,1592485439
90,Berdigestyakh,62.1,126.7,62.58,57,0,5.5,RU,1592485441
91,Chenghai,23.46,116.77,84.2,79,22,6.71,CN,1592485443
92,Lensk,60.73,114.93,54.14,79,5,3.04,RU,1592485445
93,Gizo Government Station,-8.1,156.84,82.51,78,3,7.47,SB,1592485447
94,Port Elizabeth,-33.92,25.57,73.4,35,0,10.29,ZA,1592485252
95,Pierre,44.37,-100.35,60.01,87,75,12.75,US,1592485410
96,Longyearbyen,78.22,15.64,44.6,70,75,5.82,SJ,1592485268
97,Barrow,71.29,-156.79,35.6,79,1,8.05,US,1592485174
98,Bethel,41.37,-73.41,66.99,93,90,0.89,US,1592485458
99,Zelenoborskiy,66.84,32.36,68.14,40,37,9.44,RU,1592485460
100,Taoudenni,22.68,-3.98,113.79,7,0,15.59,ML,1592485462
101,Tuatapere,-46.13,167.68,39.0,83,4,3.0,NZ,1592485464
102,Carnarvon,-24.87,113.63,64.4,88,0,13.87,AU,1592485466
103,Jieshi,22.81,115.83,83.35,85,3,8.43,CN,1592485469
104,Namatanai,-3.67,152.43,80.24,83,19,6.26,PG,1592485147
105,Villazón,-22.09,-65.59,44.02,44,0,2.51,BO,1592485473
106,Lorengau,-2.02,147.27,82.47,79,7,8.95,PG,1592485475
107,Saint George,37.1,-113.58,66.2,15,1,16.11,US,1592485206
108,San Cristobal,7.77,-72.22,75.2,94,75,2.24,VE,1592485479
109,Trivandrum,8.48,76.92,87.8,70,20,9.17,IN,1592485481
110,Sesheke,-17.48,24.3,66.2,25,0,12.75,ZM,1592485483
111,Broome,42.25,-75.83,68.0,12,0,4.0,US,1592485485
112,Suntar,62.14,117.63,53.62,95,86,3.13,RU,1592485487
113,Perevolotskiy,51.88,54.19,73.17,63,52,12.1,RU,1592485489
114,Codrington,-38.27,141.97,48.38,91,100,10.85,AU,1592485492
115,Jacqueville,5.21,-4.41,82.4,78,40,12.75,CI,1592485494
116,Isangel,-19.55,169.27,69.8,94,0,10.92,VU,1592485496
117,Cansanção,-10.67,-39.5,75.49,71,82,8.95,BR,1592485498
118,Pangnirtung,66.15,-65.71,37.4,86,75,6.93,CA,1592485500
119,Pizarro,4.95,-77.37,77.23,90,100,4.88,CO,1592485502
120,Vao,-22.67,167.48,72.01,76,92,16.46,NC,1592485504
121,Arraial do Cabo,-22.97,-42.03,73.4,69,20,10.29,BR,1592485443
122,Chui,-33.7,-53.46,64.08,89,93,13.09,UY,1592485508
123,Villamontes,-21.25,-63.5,68.0,94,0,8.48,BO,1592485510
124,San Patricio,19.22,-104.7,77.0,94,75,2.28,MX,1592485512
125,Hithadhoo,-0.6,73.08,84.78,77,95,11.01,MV,1592485215
126,Lavrentiya,65.58,-171.0,47.68,71,0,1.3,RU,1592485517
127,Nahavand,34.19,48.38,92.77,10,0,10.85,IR,1592485519
128,Saint Anthony,45.02,-93.22,73.0,56,75,6.93,US,1592485161
129,Ribeira Grande,38.52,-28.7,68.0,68,75,14.99,PT,1592485523
130,Vung Tau,10.35,107.08,84.56,79,100,6.11,VN,1592485449
131,Torbay,47.67,-52.73,64.99,72,90,18.34,CA,1592485527
132,Philadelphia,39.95,-75.16,64.99,93,90,8.05,US,1592485352
133,Banjar,-8.19,114.97,82.4,88,40,19.46,ID,1592485531
134,Cidreira,-30.18,-50.21,67.21,76,100,8.68,BR,1592485533
135,Poso,-1.4,120.75,78.49,77,95,3.71,ID,1592485535
136,Saint-Philippe,-21.36,55.77,73.4,64,75,24.16,RE,1592485538
137,Elizabeth City,36.29,-76.25,73.99,83,1,4.7,US,1592485540
138,Notre-Dame-du-Lac,47.61,-68.8,77.0,49,1,4.7,CA,1592485542
139,Port Lincoln,-34.73,135.87,59.61,52,69,19.06,AU,1592485544
140,Sur,22.57,59.53,94.78,52,0,15.1,OM,1592485546
141,College,64.86,-147.8,60.8,51,75,1.97,US,1592485548
142,Caravelas,-17.71,-39.25,74.07,85,72,8.39,BR,1592485550
143,Morón,-34.65,-58.62,57.0,87,90,14.99,AR,1592485354
144,Berlevåg,70.86,29.09,48.2,81,75,18.34,NO,1592485208
145,La Palma,33.85,-118.05,63.0,77,90,3.36,US,1592485556
146,Gao,16.64,1.64,106.45,16,0,3.15,ML,1592485559
147,Itarema,-2.92,-39.92,81.12,65,0,14.72,BR,1592485561
148,Hualmay,-11.1,-77.61,63.27,80,100,1.97,PE,1592485563
149,Snezhnogorsk,69.19,33.25,68.0,56,40,8.39,RU,1592485565
150,Husavik,66.04,-17.34,59.0,51,6,4.7,IS,1592485567
151,Luanda,-8.84,13.23,80.6,65,20,11.41,AO,1592485569
152,Koindu,8.44,-10.33,82.09,74,95,5.03,GN,1592485571
153,Independence,39.09,-94.42,73.4,73,1,11.41,US,1592485573
154,Krasnyy Chikoy,50.36,108.75,62.26,73,100,2.24,RU,1592485575
155,Laguna,38.42,-121.42,62.01,67,1,3.38,US,1592485578
156,Panabá,21.28,-88.27,78.12,89,7,5.61,MX,1592485580
157,Juneau,58.3,-134.42,52.0,87,90,4.41,US,1592485582
158,Clyde River,70.47,-68.59,32.0,93,90,8.05,CA,1592485584
159,Bengkulu,-3.8,102.27,78.84,84,100,4.54,ID,1592485586
160,Tongren,27.72,109.19,72.12,90,99,4.41,CN,1592485588
161,Nampula,-15.12,39.27,74.53,63,92,8.16,MZ,1592485590
162,North Platte,41.12,-100.77,62.6,72,90,28.86,US,1592485592
163,Puerto Baquerizo Moreno,-0.9,-89.6,69.01,84,54,12.62,EC,1592485594
164,Conway,35.09,-92.44,68.0,93,1,2.15,US,1592485451
165,Derzhavīnsk,51.1,66.32,59.11,57,100,15.43,KZ,1592485598
166,Bambous Virieux,-20.34,57.76,73.4,69,75,14.99,MU,1592485601
167,Saint-Augustin,51.23,-58.65,70.34,52,100,3.42,CA,1592485568
168,Yar-Sale,66.83,70.83,48.67,47,95,13.33,RU,1592485605
169,Bhainsa,26.95,76.9,111.25,8,100,12.93,IN,1592485607
170,Shubarshi,48.59,57.19,86.11,29,60,12.12,KZ,1592485609
171,La Ronge,55.1,-105.28,44.6,75,20,8.05,CA,1592485611
172,Nemuro,43.32,145.57,53.42,95,37,6.13,JP,1592485613
173,Kahului,20.89,-156.47,75.2,73,1,11.39,US,1592485615
174,Matara,5.95,80.54,81.99,83,99,9.06,LK,1592485617
175,Malkara,40.89,26.9,84.0,30,87,5.93,TR,1592485619
176,Saskylakh,71.92,114.08,67.69,48,38,7.47,RU,1592485621
177,Airai,-8.93,125.41,58.3,100,100,4.12,TL,1592485623
178,Puerto Madryn,-42.77,-65.04,49.14,51,95,9.31,AR,1592485626
179,Iqaluit,63.75,-68.51,41.0,56,90,11.41,CA,1592485628
180,Kitimat,54.05,-128.65,53.01,91,100,2.44,CA,1592485630
181,Izhma,65.01,53.91,57.0,36,0,4.27,RU,1592485632
182,Barentu,15.11,37.59,91.85,34,80,12.93,ER,1592485634
183,Morrinhos,-17.73,-49.1,68.86,67,0,13.4,BR,1592485636
184,Hobart,-42.88,147.33,41.0,86,75,5.82,AU,1592485638
185,Hobyo,5.35,48.53,82.56,64,51,29.51,SO,1592485640
186,Anadyr,64.75,177.48,50.0,66,2,2.24,RU,1592485642
187,Zhanakorgan,43.91,67.25,88.86,12,0,7.67,KZ,1592485644
188,Kerrville,30.05,-99.14,73.99,88,90,8.05,US,1592485395
189,Sioux Lookout,50.1,-91.92,66.2,93,90,6.93,CA,1592485649
190,Geraldton,-28.77,114.6,57.2,82,90,8.05,AU,1592485651
191,Terrace,54.52,-128.6,53.01,91,100,1.83,CA,1592485653
192,Hofn,64.25,-15.21,48.67,73,100,4.79,IS,1592485655
193,La Santisima Trinidad,-14.83,-64.9,71.6,94,84,5.21,BO,1592485657
194,San Andrés,12.58,-81.7,82.4,74,75,14.99,CO,1592485659
195,Mattoon,39.48,-88.37,73.0,77,1,3.56,US,1592485558
196,Acqui Terme,44.68,8.47,78.01,68,100,10.0,IT,1592485663
197,Caucayá,-0.19,-74.78,76.35,95,48,0.56,CO,1592485665
198,Mahébourg,-20.41,57.7,73.4,69,75,14.99,MU,1592485667
199,Gáldar,28.15,-15.65,82.4,48,20,24.16,ES,1592485670
200,Genhe,50.78,121.52,56.91,92,84,4.23,CN,1592485672
201,Katangli,51.71,143.23,40.53,98,100,10.56,RU,1592485674
202,Tătărani,45.0,25.27,73.99,73,100,1.99,RO,1592485676
203,Lieksa,63.32,30.02,64.44,82,100,7.76,FI,1592485678
204,Warrington,53.39,-2.58,57.99,93,75,3.36,GB,1592485680
205,Dunedin,-45.87,170.5,42.01,76,14,4.0,NZ,1592485502
206,Rocha,-34.48,-54.33,59.18,92,100,8.72,UY,1592485684
207,Honningsvåg,70.98,25.97,50.0,71,40,10.29,NO,1592485686
208,Nouadhibou,20.93,-17.03,87.8,45,0,23.04,MR,1592485689
209,Necochea,-38.55,-58.74,54.0,96,100,17.0,AR,1592485691
210,Lochgilphead,56.04,-5.43,69.01,56,84,12.75,GB,1592485693
211,Iskateley,67.68,53.15,51.21,46,12,7.36,RU,1592485695
212,Asău,46.43,26.4,69.01,77,74,4.99,RO,1592485697
213,New Norfolk,-42.78,147.06,39.0,84,100,3.04,AU,1592485650
214,Provideniya,64.38,-173.3,54.86,61,6,1.92,RU,1592485701
215,Koson,39.04,65.58,91.4,11,0,11.41,UZ,1592485703
216,Chimbote,-9.09,-78.58,64.44,81,87,5.95,PE,1592485705
217,Hammond,41.58,-87.5,71.01,64,1,2.71,US,1592485708
218,Mujiayingzi,42.12,118.78,68.38,54,79,3.62,CN,1592485506
219,São João da Barra,-21.64,-41.05,71.6,78,0,4.7,BR,1592485712
220,Burgeo,47.62,-57.62,60.22,73,100,11.65,CA,1592485714
221,Collie,-33.37,116.15,48.0,98,0,2.77,AU,1592485716
222,Cayenne,4.93,-52.33,78.8,100,75,6.93,GF,1592485718
223,Bongaree,-27.08,153.16,60.01,92,9,3.0,AU,1592485721
224,Jalu,29.03,21.55,98.51,13,0,13.06,LY,1592485723
225,Province of Trapani,37.83,12.67,82.99,61,16,8.05,IT,1592485725
226,Chara,56.91,118.26,51.06,85,100,1.48,RU,1592485727
227,Katobu,-4.94,122.53,75.7,88,93,5.26,ID,1592485729
228,Dingle,11.0,122.67,79.32,83,100,2.53,PH,1592485731
229,Te Anau,-45.42,167.72,33.46,92,20,3.2,NZ,1592485733
230,Porto-Novo,6.5,2.6,73.4,94,40,5.82,BJ,1592485736
231,Rørvik,64.86,11.24,66.2,59,0,10.29,NO,1592485738
232,Kundian,32.46,71.48,114.75,5,0,7.61,PK,1592485740
233,Ekibastuz,51.67,75.37,65.3,63,82,14.97,KZ,1592485742
234,Jiazi,22.88,116.07,82.35,86,6,8.34,CN,1592485744
235,Leshukonskoye,64.9,45.76,69.53,35,50,4.81,RU,1592485746
236,Acajutla,13.59,-89.83,72.0,100,93,5.61,SV,1592485748
237,Almaznyy,48.04,40.05,77.0,61,20,13.42,RU,1592485750
238,Egvekinot,66.32,-179.17,52.97,51,6,1.21,RU,1592485753
239,Nikolskoye,59.7,30.79,86.0,48,40,6.71,RU,1592485755
240,Nago,26.59,127.98,84.2,83,1,18.34,JP,1592485757
241,Antalaha,-14.9,50.28,71.38,86,100,12.82,MG,1592485759
242,Tautira,-17.73,-149.15,77.0,88,75,3.36,PF,1592485761
243,Immokalee,26.42,-81.42,79.0,94,40,4.7,US,1592485763
244,Simdega,22.62,84.52,86.74,58,70,5.66,IN,1592485766
245,Ibrā’,22.69,58.53,109.81,15,39,17.49,OM,1592485768
246,Dankov,53.25,39.16,84.2,45,0,6.71,RU,1592485770
247,Kralendijk,12.15,-68.27,84.2,74,8,17.22,BQ,1592485772
248,Playas,-2.63,-80.38,73.18,83,95,9.37,EC,1592485774
249,Naberera,-4.2,36.93,70.45,58,99,12.19,TZ,1592485776
250,Lubao,14.92,120.55,86.0,70,75,2.24,PH,1592485778
251,Baghdad,33.34,44.4,107.6,12,0,17.22,IQ,1592485570
252,Huarmey,-10.07,-78.15,63.52,81,88,4.79,PE,1592485783
253,Srednekolymsk,67.45,153.68,74.37,26,97,9.71,RU,1592485785
254,Atbasar,51.8,68.33,61.86,48,100,7.49,KZ,1592485787
255,Esna,25.29,32.55,102.2,22,0,10.29,EG,1592485564
256,Atar,20.52,-13.05,106.0,14,1,19.01,MR,1592485791
257,Motygino,58.18,94.76,68.29,58,87,5.28,RU,1592485793
258,Belle Fourche,44.67,-103.85,57.0,77,79,25.01,US,1592485796
259,Fortuna,40.6,-124.16,53.01,100,90,5.82,US,1592485798
260,Wanning,18.8,110.4,82.09,87,0,9.46,CN,1592485800
261,Henties Bay,-22.12,14.28,84.56,22,0,14.43,NA,1592485802
262,Butaritari,3.07,172.79,83.32,65,100,7.27,KI,1592485805
263,Varna,43.22,27.92,75.0,69,20,2.24,BG,1592485808
264,Imbituba,-28.24,-48.67,69.8,83,40,13.87,BR,1592485810
265,Guerrero Negro,27.98,-114.06,60.69,90,1,11.21,MX,1592485812
266,Sandnessjøen,66.02,12.63,71.6,72,20,13.87,NO,1592485814
267,Vardø,70.37,31.11,55.4,62,97,12.75,NO,1592485816
268,Kieta,-6.22,155.63,79.41,79,0,3.6,PG,1592485818
269,Sambhal,28.58,78.55,108.73,13,5,6.08,IN,1592485821
270,Yaan,7.38,8.57,80.74,76,100,4.03,NG,1592485823
271,Hamilton,39.18,-84.53,70.0,72,75,5.82,US,1592485825
272,San Quintín,30.48,-115.95,61.65,81,100,8.19,MX,1592485827
273,Skjervøy,70.03,20.97,44.98,86,79,9.28,NO,1592485829
274,Cabo San Lucas,22.89,-109.91,84.99,17,20,19.46,MX,1592485831
275,San Policarpo,12.18,125.51,81.39,81,100,17.47,PH,1592485834
276,Kibaya,-5.3,36.57,72.95,48,26,8.95,TZ,1592485836
277,Rājsamand,25.07,73.88,95.0,47,31,11.41,IN,1592485838
278,Davila,18.47,120.58,86.0,79,40,4.7,PH,1592485840
279,Tigre,-34.43,-58.58,55.99,87,90,14.99,AR,1592485842
280,Batagay-Alyta,67.8,130.41,66.56,43,0,5.44,RU,1592485845
281,Nogliki,51.83,143.17,40.66,97,100,11.12,RU,1592485847
282,Tiznit Province,29.58,-9.5,74.32,47,0,12.64,MA,1592485849
283,Kalmunai,7.42,81.82,86.43,71,84,13.94,LK,1592485851
284,Mórrope,-6.54,-80.01,62.6,82,53,11.41,PE,1592485853
285,Leningradskiy,69.38,178.42,42.42,66,73,5.32,RU,1592485856
286,Mar del Plata,-38.0,-57.56,57.99,93,90,16.11,AR,1592485624
287,Constitución,-35.33,-72.42,54.09,83,100,20.49,CL,1592485860
288,Klaksvík,62.23,-6.59,51.8,93,100,4.7,FO,1592485862
289,Natal,-5.79,-35.21,77.0,88,75,9.17,BR,1592485864
290,Souillac,-20.52,57.52,73.4,69,75,14.99,MU,1592485867
291,Quatre Cocos,-20.21,57.76,73.4,69,75,14.99,MU,1592485869
292,Kutum,14.2,24.67,85.57,33,66,9.26,SD,1592485871
293,At-Bashi,41.17,75.81,59.23,40,100,5.95,KG,1592485873
294,Honiara,-9.43,159.95,75.2,94,20,2.24,SB,1592485875
295,Bathsheba,13.22,-59.52,80.6,88,75,11.41,BB,1592485877
296,Kamaishi,39.27,141.88,64.4,71,100,6.91,JP,1592485879
297,Mehamn,71.04,27.85,50.0,71,40,10.29,NO,1592485882
298,Mikkeli,61.69,27.27,69.01,93,83,4.0,FI,1592485884
299,Seoul,37.57,126.98,77.0,78,90,5.82,KR,1592485667
300,Tasiilaq,65.61,-37.64,41.0,80,75,35.57,GL,1592485888
301,Kaeo,-35.1,173.78,50.0,3,0,5.01,NZ,1592485890
302,Lompoc,34.64,-120.46,52.0,93,0,4.99,US,1592485893
303,Kirksville,40.19,-92.58,66.2,88,20,8.05,US,1592485895
304,Srandakan,-7.94,110.25,78.69,84,4,16.22,ID,1592485897
305,Sinnamary,5.38,-52.95,81.46,77,5,4.07,GF,1592485899
306,Enshi,30.3,109.48,73.31,84,93,0.76,CN,1592485901
307,Chapayevka,47.47,36.35,73.35,57,98,18.63,UA,1592485904
308,Cabedelo,-6.98,-34.83,75.2,100,90,10.29,BR,1592485906
309,Stege,54.99,12.28,71.6,1,100,6.93,DK,1592485908
310,Goundam,16.41,-3.67,106.83,16,100,14.76,ML,1592485911
311,Nizwá,22.93,57.53,108.99,11,95,6.93,OM,1592485913
312,Port Moresby,-9.44,147.18,78.8,83,40,11.41,PG,1592485915
313,Agüimes,27.91,-15.45,82.4,48,20,24.16,ES,1592485918
314,Turan,16.07,108.22,86.0,70,20,2.24,VN,1592485662
315,Ilulissat,69.22,-51.1,37.4,75,40,6.93,GL,1592485922
316,Cookeville,36.16,-85.5,68.0,82,1,2.01,US,1592485924
317,Olafsvik,64.89,-23.71,49.39,74,95,20.71,IS,1592485926
318,Aksarka,66.56,67.8,49.35,49,98,14.56,RU,1592485929
319,Trincomalee,8.57,81.23,88.43,66,94,9.89,LK,1592485931
320,Hanoi,21.02,105.84,87.8,62,40,8.05,VN,1592485661
321,Jasper,37.2,-94.35,71.6,73,1,10.29,US,1592485936
322,Arlit,18.74,7.39,108.86,6,0,11.39,NE,1592485939
323,Dicabisagan,17.08,122.42,81.59,82,0,1.77,PH,1592485941
324,Touros,-5.2,-35.46,77.0,88,75,9.17,BR,1592485943
325,Jinchang,38.5,102.17,82.15,14,98,10.92,CN,1592485946
326,Bitung,1.45,125.18,78.8,94,40,1.12,ID,1592485948
327,Half Moon Bay,37.46,-122.43,60.01,62,1,1.14,US,1592485950
328,Djibo,14.1,-1.63,98.73,33,96,14.25,BF,1592485952
329,Inhambane,-23.86,35.38,72.18,70,0,13.4,MZ,1592485955
330,Camaná,-16.62,-72.71,64.65,74,100,8.79,PE,1592485957
331,Kavaratti,10.57,72.64,85.17,80,100,15.46,IN,1592485959
332,‘Ewa Beach,21.32,-158.01,75.2,73,20,4.7,US,1592485961
333,Wexford,52.33,-6.46,66.2,72,40,4.7,IE,1592485958
334,Aykhal,66.0,111.5,71.6,28,75,6.71,RU,1592485966
335,Grafton,42.21,-71.69,69.01,94,17,3.96,US,1592485968
336,Ngama,11.78,17.17,97.07,30,73,4.7,TD,1592485970
337,Nuuk,64.18,-51.72,41.0,80,40,4.7,GL,1592485972
338,Payakumbuh,-0.22,100.63,72.45,87,100,0.74,ID,1592485975
339,Faya,18.39,42.45,91.4,6,75,14.99,SA,1592485977
340,Evans,33.53,-82.13,66.2,88,90,3.36,US,1592485749
341,Uruaçu,-14.52,-49.14,76.33,56,0,10.69,BR,1592485981
342,Langham,52.37,-106.97,46.99,87,90,9.17,CA,1592485944
343,Derventa,44.98,17.91,73.99,82,40,13.87,BA,1592485985
344,Saldanha,-33.01,17.94,75.2,27,0,21.92,ZA,1592485987
345,Hambantota,6.12,81.12,91.4,63,20,17.22,LK,1592485990
346,Yerbogachën,61.28,108.01,60.15,59,71,1.83,RU,1592485992
347,Chumikan,54.72,135.31,38.17,95,100,6.8,RU,1592485994
348,Buchanan,5.88,-10.05,80.6,83,75,11.41,LR,1592485996
349,Sawtell,-30.38,153.1,57.2,93,75,9.17,AU,1592485998
350,Mehrān,33.12,46.16,95.0,13,0,11.41,IR,1592486001
351,Camopi,3.17,-52.32,80.73,84,2,1.92,GF,1592486003
352,Russell,32.35,-85.2,70.0,88,90,3.36,US,1592486005
353,Luwuk,-0.95,122.79,78.24,78,67,5.61,ID,1592486007
354,Corralillo,22.98,-80.59,80.46,82,100,9.55,CU,1592486009
355,Mayor Pablo Lagerenza,-19.93,-60.77,82.98,48,0,16.55,PY,1592486011
356,Karratha,-20.74,116.85,72.63,58,0,4.85,AU,1592486014
357,Adilcevaz,38.8,42.73,73.4,56,40,10.29,TR,1592486016
358,Den Helder,52.96,4.76,68.0,77,90,14.99,NL,1592485938
359,Khanbari,27.37,87.2,75.9,74,95,3.22,NP,1592486020
360,Langsa,4.47,97.97,77.04,83,72,1.14,ID,1592486022
361,Seryshevo,51.09,128.38,57.11,67,100,2.3,RU,1592486024
362,Tucumã,-0.18,-50.05,81.77,80,98,6.78,BR,1592486026
363,Cherskiy,68.75,161.3,62.94,45,0,7.72,RU,1592486029
364,Makakilo City,21.35,-158.09,75.2,88,1,10.33,US,1592486031
365,Guilin,25.28,110.29,82.4,83,40,4.47,CN,1592485961
366,Bartica,6.4,-58.62,77.0,100,40,4.7,GY,1592486035
367,Gamba,-2.65,10.0,77.2,76,25,10.65,GA,1592486037
368,Antofagasta,-23.65,-70.4,57.2,87,75,11.41,CL,1592486039
369,Moose Factory,51.26,-80.61,77.0,50,1,16.11,CA,1592486041
370,Belaya Gora,68.53,146.42,76.62,28,41,5.44,RU,1592486043
371,Kolyubakino,55.67,36.53,87.8,35,40,2.24,RU,1592486045
372,Juba,4.85,31.58,88.86,44,100,3.69,SS,1592486047
373,Qingdao,36.1,120.37,69.8,77,100,4.47,CN,1592486050
374,Gunnedah,-30.98,150.25,50.0,81,0,10.29,AU,1592486052
375,Bilma,18.69,12.92,107.02,9,0,11.86,NE,1592486054
376,Upernavik,72.79,-56.15,35.82,83,0,4.83,GL,1592486056
377,Ukiah,39.15,-123.21,55.0,76,1,2.91,US,1592486058
378,Médéa,36.26,2.75,82.4,54,75,3.36,DZ,1592486060
379,Mattru,7.62,-11.83,85.37,72,99,6.53,SL,1592486062
380,Mayo,38.89,-76.51,69.01,94,90,9.17,US,1592486064
381,Narsaq,60.92,-46.05,42.8,71,75,5.82,GL,1592486066
382,Weligama,5.97,80.42,82.33,83,99,8.68,LK,1592486068
383,Erenhot,43.65,111.98,75.31,36,0,11.14,CN,1592486071
384,Samarai,-10.62,150.67,79.3,82,82,18.34,PG,1592486073
385,Bilibino,68.05,166.44,62.51,51,74,3.49,RU,1592486075
386,Vostok,46.49,135.88,44.28,99,39,0.67,RU,1592486077
387,Orbetello,42.44,11.22,78.8,47,20,13.87,IT,1592486079
388,Katghora,22.5,82.55,91.6,48,61,0.45,IN,1592485807
389,Xinyu,27.8,114.93,79.97,88,95,3.51,CN,1592486083
390,Kavieng,-2.57,150.8,83.34,74,6,3.96,PG,1592486085
391,General Roca,-39.03,-67.58,39.2,86,100,1.12,AR,1592486087
392,Altamira,-3.2,-52.21,83.59,63,93,6.31,BR,1592486089
393,Ugoofaaru,5.67,73.0,84.42,76,95,7.49,MV,1592486092
394,Novozaimka,56.49,66.92,57.02,58,66,12.17,RU,1592486094
395,Nānākuli,21.39,-158.15,75.2,88,1,10.02,US,1592486096
396,Lebedinyy,58.52,125.52,54.46,78,100,4.59,RU,1592486098
397,Shakiso,5.75,38.92,65.23,77,97,5.66,ET,1592486100
398,Nome,64.5,-165.41,57.2,62,1,9.17,US,1592486102
399,Fairbanks,64.84,-147.72,64.4,42,90,4.7,US,1592486104
400,Kimbe,-5.55,150.14,76.96,85,3,6.22,PG,1592486107
401,Bagdarin,54.43,113.6,47.39,89,99,3.8,RU,1592486109
402,Paita,-5.09,-81.11,65.44,81,0,11.88,PE,1592486111
403,Ancud,-41.87,-73.82,51.01,100,20,6.93,CL,1592486113
404,Avondale,33.44,-112.35,78.8,19,1,4.7,US,1592485847
405,Bubaque,11.28,-15.83,81.3,81,19,8.14,GW,1592486117
406,Camrose,53.02,-112.84,48.0,100,75,6.62,CA,1592486119
407,Katherine,-14.47,132.27,68.0,60,4,5.82,AU,1592486122
408,Maués,-3.38,-57.72,82.98,70,100,3.15,BR,1592486124
409,Kruisfontein,-34.0,24.73,71.38,32,0,9.48,ZA,1592486126
410,Caramay,10.18,119.24,81.91,74,100,3.67,PH,1592486128
411,Druzhba,52.04,33.95,80.56,64,100,8.3,UA,1592486130
412,Española,35.99,-106.08,66.2,17,1,9.17,US,1592486132
413,Taraz,42.9,71.37,80.6,17,0,6.71,KZ,1592485903
414,Vanavara,60.34,102.28,63.54,51,0,8.34,RU,1592486136
415,Tifton,31.45,-83.51,75.2,83,1,2.62,US,1592486139
416,Rawson,-43.3,-65.1,47.75,53,82,11.56,AR,1592486141
417,Waipawa,-41.41,175.52,51.8,100,100,33.33,NZ,1592486144
418,Amuntai,-2.42,115.25,76.39,95,100,0.74,ID,1592486146
419,Sassandra,4.95,-6.08,79.54,86,95,11.27,CI,1592486148
420,Murray Bridge,-35.12,139.27,55.0,69,0,4.0,AU,1592485887
421,Ust-Nera,64.57,143.2,62.62,42,73,1.52,RU,1592486152
422,Marsh Harbour,26.54,-77.06,81.21,78,100,12.48,BS,1592486154
423,Dakar,14.69,-17.44,86.0,74,0,6.93,SN,1592486101
424,Cururupu,-1.83,-44.87,81.03,78,25,7.47,BR,1592486159
425,Katsuura,35.13,140.3,69.8,94,75,2.24,JP,1592486161
426,Phrae,18.08,100.0,78.8,83,40,5.82,TH,1592486163
427,Karpogory,64.0,44.45,69.69,36,73,2.73,RU,1592486165
428,Tekeli,44.83,78.82,61.77,44,0,5.44,KZ,1592486167
429,Tres Arroyos,-38.37,-60.28,49.87,74,0,12.24,AR,1592486170
430,Camacha,33.08,-16.33,73.4,78,40,12.75,PT,1592486172
431,Soe,-9.86,124.28,65.03,100,89,5.19,ID,1592486174
432,Nanortalik,60.14,-45.24,39.49,77,39,5.88,GL,1592486176
433,Pengcheng,36.43,114.17,73.38,64,0,3.36,CN,1592486178
434,Phan Thiet,10.93,108.1,81.23,83,92,1.36,VN,1592486180
435,Fort Nelson,58.81,-122.7,51.8,93,90,3.36,CA,1592486166
436,Wasilla,61.58,-149.44,53.6,62,90,4.7,US,1592486184
437,Muzhi,65.37,64.67,47.82,52,91,16.71,RU,1592486187
438,Biltine,14.53,20.92,100.65,18,14,6.31,TD,1592486189
439,Vytegra,61.01,36.45,77.38,44,0,5.88,RU,1592486191
440,Alice Springs,-23.7,133.88,53.6,37,0,4.7,AU,1592486193
441,Sumbe,-11.21,13.84,78.8,68,10,6.93,AO,1592486195
442,Halifax,44.65,-63.57,72.0,58,8,7.45,CA,1592486100
443,Uribia,11.71,-72.27,84.16,67,57,21.0,CO,1592486199
444,Portsmouth,50.8,-1.09,62.01,82,100,5.01,GB,1592486023
445,Petrăchioaia,44.58,26.3,81.0,65,40,1.12,RO,1592486204
446,Mariehamn,60.1,19.93,64.4,77,20,6.93,AX,1592486206
447,Axams,47.21,11.29,71.6,43,75,6.93,AT,1592486208
448,Matamoros,25.53,-103.25,74.5,50,0,1.72,MX,1592486210
449,Guanare,9.04,-69.74,77.65,91,48,2.55,VE,1592486212
450,Lebu,-37.62,-73.65,54.82,95,100,27.09,CL,1592486214
451,Zhigansk,66.77,123.37,67.41,49,28,5.21,RU,1592486216
452,Talnakh,69.49,88.4,50.0,39,100,8.95,RU,1592486218
453,Batemans Bay,-35.72,150.18,41.0,100,0,5.23,AU,1592486221
454,Lagoa,39.05,-27.98,64.4,84,99,12.97,PT,1592486223
455,Vilyuysk,63.76,121.62,64.17,81,75,3.65,RU,1592486225
456,Onguday,50.75,86.15,61.88,62,11,3.96,RU,1592486227
457,Oodweyne,9.41,45.06,83.14,41,100,21.9,SO,1592486229
458,Tarbert,55.86,-5.42,69.01,77,65,9.17,GB,1592486226
459,Finschhafen,-6.6,147.87,79.63,74,38,7.81,PG,1592486233
460,Tinogboc,12.01,121.41,85.21,72,100,4.27,PH,1592486235
461,Kuusamo,65.97,29.18,60.8,82,90,3.36,FI,1592486238
462,Sambava,-14.27,50.17,73.81,77,100,18.84,MG,1592486240
463,Ürümqi,43.8,87.6,77.0,31,20,8.95,CN,1592486084
464,Sobolevo,54.43,31.9,81.1,68,0,9.48,RU,1592486244
465,Xinxiang,35.31,113.87,75.74,65,0,11.5,CN,1592486246
466,Wuxue,29.85,115.55,69.73,88,100,3.76,CN,1592486248
467,Skibbereen,51.55,-9.27,64.4,63,75,9.17,IE,1592486250
468,Rio Grande,-32.03,-52.1,68.0,64,90,18.34,BR,1592486007
469,Maniitsoq,65.42,-52.9,38.25,79,31,8.28,GL,1592486254
470,Booué,-0.09,11.94,87.48,59,94,2.26,GA,1592486257
471,Bandarbeyla,9.49,50.81,92.26,39,38,26.06,SO,1592486259
472,Killybegs,54.63,-8.45,62.6,87,75,6.93,IE,1592486261
473,Mama,58.31,112.9,53.1,79,6,0.45,RU,1592486263
474,Sarāi Mīr,26.02,82.92,84.2,79,90,4.7,IN,1592486265
475,Norfolk,42.17,-71.25,71.6,73,20,5.82,US,1592485976
476,Karoi,-16.81,29.69,62.31,53,100,7.29,ZW,1592486269
477,Salgar,5.96,-75.97,66.2,93,75,4.7,CO,1592486271
478,Lola,7.8,-8.53,85.35,61,99,4.34,GN,1592486273
479,Port Augusta,-32.5,137.77,59.0,47,0,10.29,AU,1592486275
480,Dzaoudzi,-12.79,45.27,82.4,58,2,16.11,YT,1592486278
481,Presidencia Roque Sáenz Peña,-26.79,-60.44,69.01,78,100,4.0,AR,1592486280
482,Pisco,-13.7,-76.22,62.6,93,90,4.7,PE,1592486282
483,Qax,41.42,46.92,87.8,38,75,2.24,AZ,1592486284
484,Panguna,-6.32,155.48,68.74,100,0,1.54,PG,1592486286
485,Ojinaga,29.57,-104.42,77.0,50,1,3.36,MX,1592486288
486,Trairi,-3.28,-39.27,80.71,66,0,10.74,BR,1592486290
487,Maunabo,18.01,-65.9,84.99,84,8,11.01,PR,1592486292
488,Macusani,-14.08,-70.43,44.49,56,2,5.12,PE,1592486294
489,Altay,47.87,88.12,67.73,39,56,7.29,CN,1592486296
490,Liwonde,-15.05,35.2,76.03,50,55,7.49,MW,1592486299
491,Taitung City,22.76,121.14,82.4,78,75,2.24,TW,1592486301
492,Port Hedland,-20.32,118.57,68.0,94,0,3.36,AU,1592486303
493,Puteyets,65.17,57.09,47.62,52,82,6.98,RU,1592486305
494,Meulaboh,4.14,96.13,81.95,78,95,2.86,ID,1592486307
495,Ramnagar,29.4,79.12,98.29,27,16,2.51,IN,1592486309
496,Araguaína,-7.19,-48.21,81.68,53,0,11.65,BR,1592486023
497,Mikumi,-7.4,36.98,80.71,45,6,10.16,TZ,1592486313
498,Yendi,9.44,-0.01,88.16,56,95,5.7,GH,1592486315
499,São Filipe,14.9,-24.5,84.33,53,0,10.09,CV,1592486317
500,Ossora,59.24,163.07,52.79,77,0,3.22,RU,1592486319
501,Puerto Suárez,-18.95,-57.8,75.2,69,87,5.82,BO,1592486322
502,Ranfurly,-45.13,170.1,26.01,97,26,3.51,NZ,1592486324
503,Duvan,55.7,57.9,59.63,45,0,11.59,RU,1592486326
504,Kyra,49.58,111.98,58.48,82,97,5.55,RU,1592486328
505,Kushmurun,52.45,64.63,65.32,40,22,15.5,KZ,1592486330
506,Magelang,-7.47,110.22,61.0,80,60,0.6,ID,1592486332
507,União dos Palmares,-9.16,-36.03,80.6,78,75,9.17,BR,1592486334
508,Deputatsky,69.3,139.9,65.61,50,26,2.75,RU,1592486336
509,Sorong,-0.88,131.25,82.13,77,17,3.8,ID,1592486338
510,Chicama,-7.84,-79.15,64.08,81,90,3.65,PE,1592486340
511,Sechura,-5.56,-80.82,65.91,80,6,11.79,PE,1592486342
512,Swan Hill,-35.34,143.55,50.0,85,61,7.99,AU,1592486345
513,Alofi,-19.06,-169.92,68.0,100,53,6.93,NU,1592486291
514,Berehomet,48.18,25.35,71.37,76,100,8.48,UA,1592486349
515,Pavlovka,52.69,47.14,71.8,75,34,15.68,RU,1592486351
516,Margate,51.38,1.39,66.99,74,15,1.99,GB,1592486353
517,Iralaya,15.0,-83.23,82.4,83,40,6.93,HN,1592486285
518,Shimoda,34.67,138.95,59.0,92,100,8.23,JP,1592486357
519,El Centro,32.79,-115.56,75.2,43,1,8.05,US,1592486359
520,Qandala,11.47,49.87,92.75,50,98,5.7,SO,1592486361
521,Charters Towers,-20.1,146.27,62.4,89,53,9.69,AU,1592486364
522,Thinadhoo,0.53,72.93,84.61,76,45,8.9,MV,1592486366
523,Igarka,67.47,86.58,52.41,42,100,11.34,RU,1592486368
524,Shingū,33.73,135.98,64.92,97,100,10.29,JP,1592486370
525,Tarbagatay,51.48,107.36,73.4,40,55,6.71,RU,1592486372
526,Vilhena,-12.74,-60.15,76.19,62,52,5.35,BR,1592486374
527,Zhalantun,48.0,122.72,62.58,65,100,6.13,CN,1592486376
528,Ulladulla,-35.35,150.47,44.01,100,0,6.8,AU,1592486378
529,Vitim,59.45,112.56,56.32,83,99,1.72,RU,1592486381
530,Jiayuguan City,39.82,98.3,83.59,13,92,7.67,CN,1592486383
531,Carbonear,47.73,-53.21,66.99,64,100,4.0,CA,1592486385
532,Rantauprapat,2.1,99.83,76.19,87,97,2.1,ID,1592486387
533,Eureka,40.8,-124.16,51.01,100,0,2.71,US,1592486389
534,Mahon,39.89,4.27,71.6,68,40,17.22,ES,1592486391
535,Ust'-Ilimsk,58.0,102.66,62.62,52,0,5.26,RU,1592486124
536,Saint-Félicien,48.65,-72.45,82.4,42,75,8.05,CA,1592486253
537,Antsohihy,-14.88,47.99,83.35,44,0,15.37,MG,1592486397
538,Najrān,17.49,44.13,104.0,10,40,11.41,SA,1592486400
539,Cockburn Town,21.46,-71.14,84.2,74,40,11.41,TC,1592486343
540,Miles City,46.41,-105.84,53.6,87,90,11.41,US,1592486404
541,Paramonga,-10.67,-77.83,63.55,80,96,2.57,PE,1592486406
542,Jumla,29.27,82.18,66.69,68,100,3.33,NP,1592486408
543,Cirò Marina,39.37,17.13,80.6,34,1,8.05,IT,1592486410
544,Tambopata,-12.73,-69.18,78.8,83,72,3.36,PE,1592486412
545,Vila Franca do Campo,37.72,-25.43,64.4,82,75,5.82,PT,1592486414
546,Banyo,6.75,11.82,77.99,69,100,2.55,CM,1592486417
547,Fallon,39.47,-118.78,51.01,55,1,3.36,US,1592486419
548,Neiafu,-18.65,-173.98,73.4,69,40,6.93,TO,1592486421
549,Peniche,39.36,-9.38,73.0,59,0,13.0,PT,1592486423
550,Ust-Maya,60.42,134.53,58.51,60,0,1.63,RU,1592486425
551,Abonnema,4.71,6.79,84.2,74,75,11.41,NG,1592486427
552,Kolno,53.41,21.93,82.4,51,75,9.17,PL,1592486429
553,Dordrecht,51.81,4.67,75.0,62,100,3.0,NL,1592486431
554,Sangmélima,2.93,11.98,77.86,82,100,2.04,CM,1592486433
555,Paamiut,61.99,-49.67,37.63,79,74,5.46,GL,1592486435
556,Sept-Îles,50.2,-66.38,73.4,69,40,8.05,CA,1592486437
557,Hokitika,-42.72,170.97,46.76,66,100,7.81,NZ,1592486440
558,Tyup,42.73,78.36,60.55,55,100,8.3,KG,1592486442
559,Bulawayo,-20.15,28.58,64.4,45,75,8.05,ZW,1592486444
560,Gigmoto,13.78,124.39,82.27,82,100,9.08,PH,1592486446
561,Pampierstad,-27.78,24.69,63.39,31,0,3.22,ZA,1592486448
562,Nouakchott,18.09,-15.98,107.6,15,0,20.8,MR,1592486433
563,Westerland,54.91,8.3,75.2,53,100,14.99,DE,1592486452
564,Edd,13.93,41.69,94.42,39,97,14.94,ER,1592486165
565,Awjilah,29.11,21.29,98.33,13,0,12.3,LY,1592486456
566,Beyneu,45.32,55.2,95.13,12,0,10.18,KZ,1592486458
567,Kareli,22.92,79.07,84.07,63,100,7.96,IN,1592486460
568,Vanimo,-2.67,141.3,80.62,81,66,5.44,PG,1592486462
569,Lüderitz,-26.65,15.16,93.2,19,0,5.82,NA,1592486465
570,Ouésso,1.61,16.05,87.78,49,94,2.42,CG,1592486467
571,Malinyi,-8.93,36.13,83.93,44,59,3.24,TZ,1592486469
572,Kawalu,-7.38,108.21,73.89,91,92,1.39,ID,1592486471
573,Kilindoni,-7.91,39.67,78.19,75,28,18.79,TZ,1592486473
574,Hūn,29.13,15.95,100.02,10,0,11.14,LY,1592486475
575,Talcahuano,-36.72,-73.12,55.4,93,90,17.22,CL,1592486477
576,Dekar,-21.53,21.93,69.31,27,0,11.83,BW,1592486479
577,Hastings,50.86,0.57,66.99,88,7,17.22,GB,1592486223
578,Ponta Delgada,37.73,-25.67,64.4,82,75,5.82,PT,1592486484
579,Chiria,22.3,85.27,79.54,78,93,4.61,IN,1592486346
580,Tyazhinskiy,56.12,88.52,62.62,90,100,6.91,RU,1592486488
581,Salinas,36.68,-121.66,55.4,66,1,6.93,US,1592486233
582,Viedma,-40.81,-63.0,47.62,61,0,10.69,AR,1592486339
583,Salina Cruz,16.17,-95.2,80.22,74,100,8.57,MX,1592486351
584,Khani,41.96,42.96,87.8,55,84,18.34,GE,1592486496
585,Bahía Blanca,-38.72,-62.27,49.26,61,0,8.19,AR,1592486498
